{
  "type": "FeatureCollection",
  "features": [
    {
      "type": "Feature",
      "geometry": {
        "type": "Point",
        "coordinates": [
          -97.31805556,
          27.48416667
        ]
      },
      "properties": {
        "CBI_cGPS_Count": "1",
        "Title": "Bird Island, Padre Island",
        "State": "Texas",
        "Code": "BIRD",
        "Elevation": "-20.26",
        "Established": "May 23, 2014"
      }
    },
    {
      "type": "Feature",
      "geometry": {
        "type": "Point",
        "coordinates": [
          -97.22,
          27.58305556
        ]
      },
      "properties": {
        "CBI_cGPS_Count": "1",
        "Title": "Bob Hall Pier, Corpus Christi",
        "State": "Texas",
        "Code": "BHPR",
        "Elevation": "-19.3072",
        "Established": "Sep 16, 2019"
      }
    },
    {
      "type": "Feature",
      "geometry": {
        "type": "Point",
        "coordinates": [
          -95.91388889,
          28.71
        ]
      },
      "properties": {
        "CBI_cGPS_Count": "1",
        "Title": "Matagorda City",
        "State": "Texas",
        "Code": "MATA",
        "Elevation": "-15.49",
        "Established": "May 23, 2014"
      }
    },
    {
      "type": "Feature",
      "geometry": {
        "type": "Point",
        "coordinates": [
          -94.72444444,
          29.35722222
        ]
      },
      "properties": {
        "CBI_cGPS_Count": "1",
        "Title": "North Jetty",
        "State": "Texas",
        "Code": "TXNJ",
        "Elevation": "-13.9573",
        "Established": "Sep 27, 2011"
      }
    },
    {
      "type": "Feature",
      "geometry": {
        "type": "Point",
        "coordinates": [
          -97.2125,
          26.06388889
        ]
      },
      "properties": {
        "CBI_cGPS_Count": "1",
        "Title": "Port Isabel",
        "State": "Texas",
        "Code": "PTIS",
        "Elevation": "-12.209",
        "Established": "Mar 29, 2014"
      }
    },
    {
      "type": "Feature",
      "geometry": {
        "type": "Point",
        "coordinates": [
          -97.42888889,
          26.55694444
        ]
      },
      "properties": {
        "CBI_cGPS_Count": "1",
        "Title": "Port Mansfield, Brownsville",
        "State": "Texas",
        "Code": "PTMS",
        "Elevation": "-15.183",
        "Established": "Mar 29, 2014"
      }
    },
    {
      "type": "Feature",
      "geometry": {
        "type": "Point",
        "coordinates": [
          -97.04638889,
          28.02638889
        ]
      },
      "properties": {
        "CBI_cGPS_Count": "1",
        "Title": "Rockport",
        "State": "Texas",
        "Code": "RKPT",
        "Elevation": "-19.4440",
        "Established": "Jan 19, 2012"
      }
    },
    {
      "type": "Feature",
      "geometry": {
        "type": "Point",
        "coordinates": [
          -94.51055556,
          29.51555556
        ]
      },
      "properties": {
        "CBI_cGPS_Count": "1",
        "Title": "Rollover Pass",
        "State": "Texas",
        "Code": "ROPS",
        "Elevation": "-19.417",
        "Established": "Oct 01, 2016"
      }
    },
    {
      "type": "Feature",
      "geometry": {
        "type": "Point",
        "coordinates": [
          -94.13083333,
          29.08055556
        ]
      },
      "properties": {
        "CBI_cGPS_Count": "1",
        "Title": "San Luis Pass",
        "State": "Texas",
        "Code": "SLPS",
        "Elevation": "-20.828",
        "Established": "Oct 01, 2016"
      }
    },
    {
      "type": "Feature",
      "geometry": {
        "type": "Point",
        "coordinates": [
          -93.84166667,
          29.68916667
        ]
      },
      "properties": {
        "CBI_cGPS_Count": "1",
        "Title": "Texas Point",
        "State": "Texas",
        "Code": "TXSP",
        "Elevation": "-13.365",
        "Established": "Sep 28, 2011"
      }
    },
    {
      "type": "Feature",
      "geometry": {
        "type": "Point",
        "coordinates": [
          -97.39166667,
          27.81388889
        ]
      },
      "properties": {
        "CBI_cGPS_Count": "1",
        "Title": "Texas State Aquarium, Corpus Christi",
        "State": "Texas",
        "Code": "TSAQ",
        "Elevation": "-12.145",
        "Established": "Jul 12, 2019"
      }
    }
  ]
}